{"city":"Brussels-Capital Region","coordinates":{"latitude":50.849665,"longitude":4.33382},"country":"BE","date":{"local":"2021-01-02T02:00:00+01:00","utc":"2021-01-02T01:00:00+00:00"},"entity":"government","isAnalysis":false,"isMobile":false,"location":"BETR001","locationId":4920,"parameter":"co","sensorType":"reference grade","unit":"µg/m³","value":0.395}
{"city":"Brussels-Capital Region","coordinates":{"latitude":50.8508105371924,"longitude":4.34858747427388},"country":"BE","date":{"local":"2021-01-02T03:00:00+01:00","utc":"2021-01-02T02:00:00+00:00"},"entity":"government","isAnalysis":false,"isMobile":false,"location":"BETB004","locationId":4866,"parameter":"co","sensorType":"reference grade","unit":"µg/m³","value":0.285}
{"city":"Brussels-Capital Region","coordinates":{"latitude":50.895101,"longitude":4.392718},"country":"BE","date":{"local":"2021-01-02T02:00:00+01:00","utc":"2021-01-02T01:00:00+00:00"},"entity":"government","isAnalysis":false,"isMobile":false,"location":"BETMEU1","locationId":3448,"parameter":"pm25","sensorType":"reference grade","unit":"µg/m³","value":20.9}
{"city":"Liege","coordinates":{"latitude":50.6122775285323,"longitude":5.99275271918705},"country":"BE","date":{"local":"2021-01-02T03:00:00+01:00","utc":"2021-01-02T02:00:00+00:00"},"entity":"government","isAnalysis":false,"isMobile":false,"location":"BETN067","locationId":4889,"parameter":"pm10","sensorType":"reference grade","unit":"µg/m³","value":20.271}
{"city":"Brussels-Capital Region","coordinates":{"latitude":50.895101,"longitude":4.392718},"country":"BE","date":{"local":"2021-01-02T03:00:00+01:00","utc":"2021-01-02T02:00:00+00:00"},"entity":"government","isAnalysis":false,"isMobile":false,"location":"BETMEU1","locationId":3448,"parameter":"pm25","sensorType":"reference grade","unit":"µg/m³","value":22.45}
{"city":"Brussels-Capital Region","coordinates":{"latitude":50.796632,"longitude":4.358539},"country":"BE","date":{"local":"2021-01-02T02:00:00+01:00","utc":"2021-01-02T01:00:00+00:00"},"entity":"government","isAnalysis":false,"isMobile":false,"location":"BETR012","locationId":4904,"parameter":"pm10","sensorType":"reference grade","unit":"µg/m³","value":20.5}
{"city":"Brussels-Capital Region","coordinates":{"latitude":50.849665,"longitude":4.33382},"country":"BE","date":{"local":"2021-01-02T03:00:00+01:00","utc":"2021-01-02T02:00:00+00:00"},"entity":"government","isAnalysis":false,"isMobile":false,"location":"BETR001","locationId":4920,"parameter":"pm10","sensorType":"reference grade","unit":"µg/m³","value":21.5}
{"city":"Brussels-Capital Region","coordinates":{"latitude":50.8835598117798,"longitude":4.38296325180234},"country":"BE","date":{"local":"2021-01-02T02:00:00+01:00","utc":"2021-01-02T01:00:00+00:00"},"entity":"government","isAnalysis":false,"isMobile":false,"location":"BETN043","locationId":4555,"parameter":"co","sensorType":"reference grade","unit":"µg/m³","value":0.4}
{"city":"Brussels-Capital Region","coordinates":{"latitude":50.8835598117798,"longitude":4.38296325180234},"country":"BE","date":{"local":"2021-01-02T03:00:00+01:00","utc":"2021-01-02T02:00:00+00:00"},"entity":"government","isAnalysis":false,"isMobile":false,"location":"BETN043","locationId":4555,"parameter":"pm10","sensorType":"reference grade","unit":"µg/m³","value":25.0}
{"city":"Liege","coordinates":{"latitude":50.6122775285323,"longitude":5.99275271918705},"country":"BE","date":{"local":"2021-01-03T02:00:00+01:00","utc":"2021-01-03T01:00:00+00:00"},"entity":"government","isAnalysis":false,"isMobile":false,"location":"BETN067","locationId":4889,"parameter":"pm10","sensorType":"reference grade","unit":"µg/m³","value":29.271}
{"city":"Brussels-Capital Region","coordinates":{"latitude":50.8835598117798,"longitude":4.38296325180234},"country":"BE","date":{"local":"2021-01-02T03:00:00+01:00","utc":"2021-01-02T02:00:00+00:00"},"entity":"government","isAnalysis":false,"isMobile":false,"location":"BETN043","locationId":4555,"parameter":"pm25","sensorType":"reference grade","unit":"µg/m³","value":22.7}
